,City,LAT,Long,Max Temp,Humidity,Cloudiness,Wind Speed,Country,Date
0,Zhezkazgan,47.8043,67.7144,83.59,27,33,17.11,KZ,1628604670
1,Hermanus,-34.4187,19.2345,61.81,59,0,4.52,ZA,1628604671
2,Kapaa,22.0752,-159.319,79.12,76,75,10.36,US,1628604671
3,Caravelas,-17.7125,-39.2481,78.39,58,7,6.11,BR,1628604672
4,Vostok,46.4856,135.8833,51.28,72,98,5.88,RU,1628604672
5,Poum,-20.2333,164.0167,67.98,66,49,16.51,NC,1628604672
6,Barrow,71.2906,-156.7887,35.62,75,90,8.05,US,1628604673
7,Atuona,-9.8,-139.0333,77.94,67,59,20.29,PF,1628604673
8,Solwezi,-12.1688,26.3894,80.83,13,0,6.08,ZM,1628604674
9,Mayskiy,47.6931,40.1025,89.01,43,100,6.02,RU,1628604674
10,Kruisfontein,-34.0033,24.7314,63.88,42,0,7.78,ZA,1628604674
11,Ribeira Grande,38.5167,-28.7,79.2,73,20,11.5,PT,1628604675
12,Ballina,-28.8667,153.5667,54.79,75,7,7.56,AU,1628604675
13,Tuktoyaktuk,69.4541,-133.0374,41.97,77,100,10.09,CA,1628604675
14,Ushuaia,-54.8,-68.3,35.22,93,75,35.68,AR,1628604632
15,Kaitangata,-46.2817,169.8464,48.92,90,87,8.97,NZ,1628604676
16,Bambous Virieux,-20.3428,57.7575,73.22,94,75,3.44,MU,1628604676
17,Xining,36.6167,101.7667,64.65,56,99,5.66,CN,1628604677
18,Bredasdorp,-34.5322,20.0403,61.29,55,0,3.53,ZA,1628604677
19,Belyy Yar,53.6039,91.3903,76.89,61,100,6.71,RU,1628604677
20,Rikitea,-23.1203,-134.9692,69.67,66,3,17.52,PF,1628604678
21,Dikson,73.5069,80.5464,40.32,91,100,15.52,RU,1628604678
22,Jishou,28.3167,109.7167,76.86,96,100,1.34,CN,1628604679
23,Punta Arenas,-53.15,-70.9167,39.31,60,20,21.85,CL,1628604679
24,Khatanga,71.9667,102.5,62.29,60,93,7.94,RU,1628604679
25,Humboldt,40.6665,-123.9178,45.86,54,0,2.48,US,1628604680
26,Qaanaaq,77.484,-69.3632,40.03,59,100,10.63,GL,1628604680
27,Baní,18.2833,-70.3333,84.85,50,0,11.61,DO,1628604681
28,Avarua,-21.2078,-159.775,68.05,100,20,3.44,CK,1628604681
29,Port Alfred,-33.5906,26.891,62.13,54,0,8.5,ZA,1628604682
30,São Miguel do Araguaia,-13.275,-50.1628,91.11,22,10,9.01,BR,1628604428
31,Andújar,38.0392,-4.0508,89.47,25,78,7.0,ES,1628604612
32,Lata,40.1629,-8.3327,91.04,23,0,9.91,PT,1628604682
33,Thompson,55.7435,-97.8558,55.56,100,90,4.61,CA,1628604682
34,Lebu,-37.6167,-73.65,47.19,72,4,18.41,CL,1628604683
35,Mataura,-46.1927,168.8643,47.48,98,63,1.97,NZ,1628604683
36,Lishu,43.3047,124.3278,65.79,95,97,4.59,CN,1628604684
37,Norman Wells,65.282,-126.8329,46.44,100,90,4.61,CA,1628604684
38,Jamestown,42.097,-79.2353,74.52,93,90,11.01,US,1628604672
39,Hithadhoo,-0.6,73.0833,81.95,67,14,5.79,MV,1628604685
40,Chokurdakh,70.6333,147.9167,42.08,82,11,8.86,RU,1628604685
41,Cabo San Lucas,22.8909,-109.9124,81.52,91,100,16.71,MX,1628604594
42,Klaksvík,62.2266,-6.589,52.72,94,99,5.37,FO,1628604686
43,Alexandria,31.2156,29.9553,84.63,65,0,15.03,EG,1628604575
44,Castro,-24.7911,-50.0119,73.4,39,53,7.14,BR,1628604687
45,Pyu,18.4833,96.4333,78.15,92,100,4.43,MM,1628604687
46,Hobart,-42.8794,147.3294,58.26,62,3,5.99,AU,1628604687
47,Cerro Grande,13.8167,-87.25,71.08,67,100,4.43,HN,1628604688
48,Novo Aripuanã,-5.1206,-60.3797,93.04,29,7,4.45,BR,1628604688
49,Fortuna,40.5982,-124.1573,54.66,95,40,0.0,US,1628604689
50,Hilo,19.7297,-155.09,74.8,94,90,5.75,US,1628604445
51,Mareeba,-17.0,145.4333,65.12,90,49,2.8,AU,1628604689
52,Mosquera,4.7059,-74.2302,59.09,82,40,3.44,CO,1628604473
53,Pangnirtung,66.1451,-65.7125,46.4,81,90,13.8,CA,1628604690
54,Ţahţā,26.7693,31.5021,102.69,16,0,17.11,EG,1628604690
55,Saskylakh,71.9167,114.0833,56.3,93,99,5.91,RU,1628604691
56,Ahipara,-35.1667,173.1667,50.92,85,16,7.18,NZ,1628604691
57,Anadyr,64.75,177.4833,50.4,79,100,4.63,RU,1628604692
58,Albany,42.6001,-73.9662,79.63,80,64,6.4,US,1628604422
59,Maragogi,-9.0122,-35.2225,78.37,80,24,10.98,BR,1628604663
60,Yamada,39.4667,141.95,67.86,81,92,6.17,JP,1628604693
61,Ulladulla,-35.35,150.4667,56.88,77,0,8.43,AU,1628604693
62,Vaini,-21.2,-175.2,68.16,83,40,13.8,TO,1628604693
63,Río Gallegos,-51.6226,-69.2181,39.25,52,0,23.02,AR,1628604694
64,Tucuruí,-3.7661,-49.6725,93.34,34,8,3.74,BR,1628604694
65,Northam,51.0333,-4.2167,71.73,75,75,11.1,GB,1628604695
66,Darhan,49.4867,105.9228,65.5,67,29,1.45,MN,1628604695
67,Kurikka,62.6167,22.4167,71.06,49,79,10.96,FI,1628604695
68,Port Lincoln,-34.7333,135.8667,57.6,90,100,18.19,AU,1628604696
69,Busselton,-33.65,115.3333,44.1,65,91,15.23,AU,1628604696
70,Masallātah,32.6167,14.0,96.82,30,0,11.81,LY,1628604697
71,Lorengau,-2.0226,147.2712,81.28,77,86,5.06,PG,1628604697
72,Bluff,-46.6,168.3333,47.8,87,34,15.64,NZ,1628604697
73,Iguala,18.3438,-99.5372,74.37,93,93,0.92,MX,1628604698
74,Batouri,4.4333,14.3667,80.85,70,54,3.74,CM,1628604698
75,Port Hedland,-20.3167,118.5667,71.65,64,27,9.22,AU,1628604699
76,Somerset West,-34.084,18.8211,63.05,53,0,4.52,ZA,1628604699
77,Myski,53.709,87.8014,64.49,76,100,0.87,RU,1628604700
78,Airai,-8.9266,125.4092,56.79,90,45,2.77,TL,1628604700
79,Saldanha,-33.0117,17.9442,57.0,57,0,8.52,ZA,1628604700
80,Angoche,-16.2325,39.9086,76.71,56,33,13.49,MZ,1628604701
81,Kondinskoye,59.6481,67.41,57.83,84,100,8.75,RU,1628604701
82,Wagar,16.1525,36.2032,95.25,38,14,7.07,SD,1628604702
83,Tebingtinggi,3.3285,99.1625,78.85,89,100,1.54,ID,1628604702
84,Liberal,37.0431,-100.921,82.51,53,1,4.61,US,1628604702
85,Bunbury,-33.3333,115.6333,43.83,64,75,15.03,AU,1628604703
86,Chui,-33.6971,-53.4616,52.88,81,97,9.69,UY,1628604703
87,Isahaya,32.8411,130.0431,75.25,87,100,2.71,JP,1628604703
88,Liku,-0.7275,119.8922,75.43,92,32,2.73,ID,1628604704
89,Narsaq,60.9167,-46.05,57.42,40,80,2.59,GL,1628604704
90,Khani,41.9563,42.9566,74.77,75,58,5.39,GE,1628604704
91,Puerto Ayora,-0.7393,-90.3518,69.55,93,96,10.0,EC,1628604705
92,Umluj,25.0213,37.2685,90.81,57,5,11.48,SA,1628604705
93,Talnakh,69.4865,88.3972,49.73,84,100,9.89,RU,1628604706
94,Yellowknife,62.456,-114.3525,50.38,87,70,15.66,CA,1628604492
95,East London,-33.0153,27.9116,62.73,52,0,7.56,ZA,1628604560
96,San Patricio,28.017,-97.5169,87.69,68,0,13.35,US,1628604706
97,Cherskiy,68.75,161.3,36.43,94,23,13.44,RU,1628604707
98,Yerbogachën,61.2767,108.0108,66.24,54,98,1.7,RU,1628604707
99,Hailar,49.2,119.7,57.72,81,100,9.19,CN,1628604708
100,Marawi,7.9986,124.2928,69.66,91,99,1.83,PH,1628604708
101,Baruun-Urt,46.6806,113.2792,58.86,83,91,6.44,MN,1628604708
102,Erenhot,43.6475,111.9767,74.26,27,0,6.55,CN,1628604709
103,Inhambane,-23.865,35.3833,69.94,61,96,16.96,MZ,1628604709
104,Ponta do Sol,32.6667,-17.1,78.12,74,57,5.55,PT,1628604710
105,Saint-Joseph,-21.3667,55.6167,73.76,86,56,6.6,RE,1628604710
106,Ilulissat,69.2167,-51.1,53.62,32,75,18.41,GL,1628604710
107,Hamilton,39.1834,-84.5333,81.03,92,75,5.75,US,1628604483
108,Port Augusta,-32.5,137.7667,69.94,26,24,22.17,AU,1628604711
109,Fernley,39.608,-119.2518,72.84,21,0,5.77,US,1628604602
110,Nador,35.174,-2.9287,79.05,78,75,9.22,MA,1628604711
111,Evansville,37.9748,-87.5558,84.02,78,75,1.99,US,1628604369
112,Tasiilaq,65.6145,-37.6368,50.16,96,100,18.37,GL,1628604712
113,Christchurch,-43.5333,172.6333,46.99,71,75,6.91,NZ,1628604450
114,Qui Nhon,13.7667,109.2333,83.48,83,100,5.08,VN,1628604712
115,Ouro Preto do Oeste,-10.7481,-62.2158,92.62,27,3,3.85,BR,1628604713
116,Bayir,37.2687,28.2167,97.63,13,0,15.82,TR,1628604713
117,Saint Paul Harbor,57.79,-152.4072,50.07,82,59,12.55,US,1628604714
118,Yeppoon,-23.1333,150.7333,58.78,78,0,17.31,AU,1628604714
119,Köping,59.514,15.9926,74.5,46,92,7.43,SE,1628604715
120,Oussouye,12.485,-16.5469,86.97,65,55,7.36,SN,1628604715
121,Sitka,57.0531,-135.33,57.09,94,90,10.36,US,1628604715
122,Saint-Augustin,51.226,-58.6502,66.85,69,93,16.62,CA,1628604716
123,Bilibino,68.0546,166.4372,47.12,87,0,7.7,RU,1628604716
124,Yacuiba,-22.038,-63.6797,56.17,58,90,17.27,BO,1628604608
125,Puerto Escondido,15.85,-97.0667,79.63,78,20,0.0,MX,1628604717
126,Yangambi,0.8102,24.4336,83.48,57,100,1.23,CD,1628604717
127,Vaitape,-16.5167,-151.75,79.29,72,11,15.03,PF,1628604718
128,Butaritari,3.0707,172.7902,82.9,70,94,13.67,KI,1628604718
129,Tabuk,17.4189,121.4443,76.05,92,82,3.44,PH,1628604718
130,Sesheke,-17.4759,24.2968,88.59,9,0,6.11,ZM,1628604719
131,Antsohihy,-14.8796,47.9875,84.65,38,29,6.53,MG,1628604719
132,Aklavik,68.2191,-135.0107,41.58,79,100,9.13,CA,1628604719
133,Elko,41.0002,-115.5012,62.82,21,0,2.62,US,1628604720
134,Vanimo,-2.6741,141.3028,77.52,89,35,4.88,PG,1628604720
135,Landerneau,48.4525,-4.2525,70.61,63,75,5.75,FR,1628604721
136,Tabou,4.423,-7.3528,82.26,65,32,10.85,CI,1628604721
137,Bubaque,11.2833,-15.8333,80.11,80,75,8.59,GW,1628604721
138,Marzuq,14.4,46.4667,85.96,46,91,9.17,YE,1628604722
139,Hong Kong,22.2855,114.1577,87.33,85,100,8.08,HK,1628604614
140,Shakawe,-18.3667,21.85,87.58,8,0,5.77,BW,1628604722
141,Coahuayana Viejo,18.7333,-103.6833,81.88,88,100,3.29,MX,1628604723
142,Bethel,41.3712,-73.414,77.2,89,90,8.05,US,1628604711
143,Nikolskoye,59.7035,30.7861,71.49,51,87,7.23,RU,1628604723
144,Vila Velha,-20.3297,-40.2925,78.75,61,40,8.05,BR,1628604724
145,Isfana,39.8386,69.5306,75.76,24,0,3.38,KG,1628604724
146,Longyearbyen,78.2186,15.6401,48.04,76,0,9.22,SJ,1628604532
147,Mersing,2.4312,103.8405,79.68,84,44,7.18,MY,1628604724
148,Pitimbu,-7.4706,-34.8086,75.79,82,28,12.73,BR,1628604725
149,Ouargaye,11.5033,0.0572,85.62,58,100,4.74,BF,1628604725
150,Fayaoué,-20.65,166.5333,68.65,69,100,24.85,NC,1628604726
151,Sydney,-33.8679,151.2073,58.73,73,0,1.99,AU,1628604421
152,Moroni,-11.7022,43.2551,76.51,68,57,10.96,KM,1628604726
153,Owando,-0.4819,15.8999,94.06,32,92,2.33,CG,1628604726
154,Aljustrel,37.8776,-8.1652,72.12,22,0,7.16,PT,1628604727
155,Gunnedah,-30.9833,150.25,46.72,80,0,1.99,AU,1628604727
156,Panshi,42.9422,126.0561,63.45,95,90,3.09,CN,1628604728
157,Hirara,24.8,125.2833,82.71,86,91,12.8,JP,1628604728
158,Najrān,17.4924,44.1277,97.79,11,70,15.35,SA,1628604728
159,Carnarvon,-24.8667,113.6333,59.07,54,40,12.66,AU,1628604729
160,Atar,20.5169,-13.0499,104.36,12,22,12.95,MR,1628604729
161,Batticaloa,7.7102,81.6924,83.98,72,68,1.23,LK,1628604730
162,Chicama,-7.8447,-79.1469,61.34,71,37,6.13,PE,1628604730
163,Listvyanka,51.8535,104.8693,56.7,86,90,1.14,RU,1628604730
164,Bonavista,48.6499,-53.1147,61.36,63,3,10.87,CA,1628604731
165,Arraial do Cabo,-22.9661,-42.0278,78.66,61,0,12.66,BR,1628604731
166,Povenets,62.8487,34.8262,69.57,65,100,5.64,RU,1628604731
167,La Ronge,55.1001,-105.2842,56.28,95,100,11.52,CA,1628604732
168,Ust'-Kalmanka,52.1207,83.305,66.97,55,46,10.6,RU,1628604732
169,Port Elizabeth,-33.918,25.5701,66.09,43,0,4.56,ZA,1628604732
170,Nouadhibou,20.931,-17.0347,71.24,79,10,23.04,MR,1628604733
171,Husavik,66.0449,-17.3389,65.23,50,86,5.23,IS,1628604733
172,Presidencia Roque Sáenz Peña,-26.7852,-60.4388,54.18,61,100,8.66,AR,1628604733
173,Kiama,-34.6833,150.8667,57.25,68,0,8.9,AU,1628604734
174,Olafsvik,64.8945,-23.7142,56.12,84,81,5.73,IS,1628604734
175,Clyde River,70.4692,-68.5914,36.27,95,100,7.34,CA,1628604734
176,San Nicolas,18.1725,120.5953,79.81,85,100,4.07,PH,1628604735
177,Road Town,18.4167,-64.6167,80.2,81,100,22.55,VG,1628604735
178,Provideniya,64.3833,-173.3,44.29,73,44,4.29,RU,1628604735
179,Opuwo,-18.0607,13.84,86.76,9,0,8.03,NA,1628604736
180,Samarai,-10.6167,150.6667,77.7,87,42,17.52,PG,1628604736
181,Saint-Pierre,-21.3393,55.4781,74.84,79,75,3.44,RE,1628604737
182,Upernavik,72.7868,-56.1549,49.17,47,100,13.22,GL,1628604737
183,Oranjemund,-28.55,16.4333,76.44,25,0,15.39,NA,1628604737
184,Erice,38.037,12.5865,95.36,36,0,11.25,IT,1628604738
185,Saint-Philippe,-21.3585,55.7679,74.75,85,51,6.42,RE,1628604738
186,Touros,-5.1989,-35.4608,79.7,62,39,18.21,BR,1628604489
187,Port Macquarie,-31.4333,152.9167,48.16,78,1,11.34,AU,1628604738
188,Makakilo City,21.3469,-158.0858,75.52,80,1,3.44,US,1628604483
189,Trivandrum,8.4833,76.9167,80.58,89,75,8.05,IN,1628604739
190,Dawlatabad,36.4141,64.9053,93.65,8,0,9.06,AF,1628604739
191,Kavieng,-2.5744,150.7967,83.23,70,63,13.33,PG,1628604740
192,Tiksi,71.6872,128.8694,52.93,74,22,3.18,RU,1628604740
193,Sisimiut,66.9395,-53.6735,49.5,64,100,14.14,GL,1628604740
194,Ancud,-41.8697,-73.8203,45.23,74,13,3.02,CL,1628604741
195,Leningradskiy,69.3833,178.4167,33.44,94,94,10.63,RU,1628604741
196,Reconquista,-29.15,-59.65,52.61,61,10,9.08,AR,1628604742
197,Lukovetskiy,64.2956,41.9211,67.98,75,100,4.92,RU,1628604742
198,Cayenne,4.9333,-52.3333,83.08,81,75,3.0,GF,1628604742
199,Abaza,52.655,90.0928,61.29,98,100,3.02,RU,1628604743
200,Lüderitz,-26.6481,15.1594,70.97,40,0,8.66,NA,1628604743
201,Banjar,-8.19,114.9675,78.66,87,60,7.9,ID,1628604743
202,Marabu,4.4148,114.0089,79.61,80,72,1.52,MY,1628604744
203,Asilah,35.465,-6.0348,87.76,67,48,7.16,MA,1628604744
204,Portland,45.5234,-122.6762,66.25,80,75,1.01,US,1628604561
205,Juneau,58.3019,-134.4197,54.21,96,90,11.01,US,1628604745
206,Mahébourg,-20.4081,57.7,73.26,94,75,3.44,MU,1628604745
207,Sioux Lookout,50.1001,-91.917,68.38,79,51,12.35,CA,1628604745
208,Laiwu,36.1928,117.6569,75.27,88,75,4.16,CN,1628604746
209,Evensk,61.95,159.2333,49.15,90,44,3.62,RU,1628604746
210,Porto Santo,33.072,-16.3415,76.3,69,40,9.22,PT,1628604746
211,Cape Town,-33.9258,18.4232,63.1,65,0,1.99,ZA,1628604723
212,Edd,13.9297,41.6925,95.68,50,2,11.48,ER,1628604747
213,Dingli,35.8614,14.3822,93.36,41,0,11.5,MT,1628604747
214,Lumut,4.2323,100.6298,81.68,72,97,2.15,MY,1628604748
215,Arlit,18.7369,7.3853,103.3,18,100,9.4,NE,1628604748
216,Severo-Kuril'sk,50.6789,156.125,51.89,88,57,4.09,RU,1628604748
217,San Cristobal,7.7669,-72.225,77.18,71,86,7.0,VE,1628604497
218,Ugoofaaru,5.6667,73.0,82.6,75,100,17.38,MV,1628604749
219,Ucluelet,48.9329,-125.5528,58.08,92,16,3.02,CA,1628604729
220,George Town,5.4112,100.3354,82.89,75,20,3.44,MY,1628604700
221,Mar del Plata,-38.0023,-57.5575,44.62,60,47,10.18,AR,1628604552
222,San Borja,-14.8167,-66.85,78.66,53,97,3.87,BO,1628604750
223,Saratoga Springs,43.0831,-73.7846,80.73,81,54,5.57,US,1628604679
224,Kirakira,-10.4544,161.9205,77.92,88,33,11.27,SB,1628604750
225,Dali,25.7,100.1833,65.12,94,100,3.78,CN,1628604751
226,New Norfolk,-42.7826,147.0587,57.92,60,10,1.01,AU,1628604751
227,Saint-François,46.4154,3.9054,84.47,46,0,3.44,FR,1628604751
228,Dingle,10.9995,122.6711,75.83,86,100,0.96,PH,1628604752
229,High Prairie,55.4334,-116.4858,57.79,52,4,13.56,CA,1628604722
230,Waipawa,-41.4122,175.5153,42.1,70,69,4.09,NZ,1628604752
231,Sanlúcar de Barrameda,36.7781,-6.3515,96.89,54,0,12.66,ES,1628604753
232,Adrar,20.5022,-10.0711,101.07,13,11,15.61,MR,1628604753
233,Hervey Bay,-25.2986,152.8535,63.03,61,59,10.74,AU,1628604753
234,Vikulovo,56.8167,70.6107,61.52,86,100,7.81,RU,1628604754
235,Grand Gaube,-20.0064,57.6608,73.38,80,8,4.0,MU,1628604754
236,Mortka,59.3322,66.0214,55.85,89,100,5.95,RU,1628604755
237,Bara,10.3744,10.7288,80.55,74,93,8.16,NG,1628604755
238,Batagay,67.6333,134.6333,67.68,37,55,4.59,RU,1628604755
239,Sur,22.5667,59.5289,89.51,64,15,1.97,OM,1628604756
240,College,64.8569,-147.8028,52.29,94,75,0.0,US,1628604682
241,Katsuura,35.1333,140.3,84.31,82,0,4.76,JP,1628604555
242,Thinadhoo,0.5333,72.9333,82.08,72,64,6.78,MV,1628604757
243,São Félix do Xingu,-6.6447,-51.995,92.8,23,0,5.55,BR,1628604757
244,Saint George,37.1041,-113.5841,84.54,36,1,0.0,US,1628604757
245,Avilés,43.5547,-5.9248,71.92,78,40,6.91,ES,1628604758
246,Grimshaw,56.1834,-117.6027,58.01,54,1,13.31,CA,1628604758
247,Tamandaré,-8.7597,-35.1047,77.99,83,22,10.31,BR,1628604759
248,Miramar,25.9873,-80.2323,90.05,70,1,13.8,US,1628604531
249,Sobolevo,54.4299,31.8996,74.23,72,77,8.25,RU,1628604759
250,Zaigrayevo,51.8336,108.2703,60.06,56,0,0.81,RU,1628604759
251,Skegness,53.1436,0.3363,74.03,68,77,6.98,GB,1628604760
252,Whitehorse,60.7161,-135.0538,52.02,83,100,10.27,CA,1628604760
253,Neiafu,-18.65,-173.9833,72.28,88,75,6.91,TO,1628604761
254,Hobyo,5.3505,48.5268,79.12,70,84,28.3,SO,1628604761
255,Sangmélima,2.9333,11.9833,82.72,53,71,4.16,CM,1628604761
256,Lukh,57.0124,42.2584,87.69,37,100,5.95,RU,1628604762
257,Banepā,27.6298,85.5214,73.72,83,75,8.05,NP,1628604762
258,Mergen,49.1833,125.2167,58.53,84,99,7.78,CN,1628604763
259,Vanderhoof,54.0166,-124.0198,57.06,69,100,6.87,CA,1628604763
260,Damietta,31.4165,31.8133,85.8,55,0,14.38,EG,1628604763
261,Ezhou,30.4,114.8333,78.62,91,100,3.13,CN,1628604764
262,Pacific Grove,36.6177,-121.9166,59.52,93,90,1.99,US,1628604740
263,Lamas,-6.4167,-76.5333,72.07,62,29,1.86,PE,1628604764
264,Puerto Ayacucho,5.6639,-67.6236,76.15,88,100,2.48,VE,1628604765
265,Woodway,31.506,-97.205,82.56,84,75,1.99,US,1628604765
266,Aleksandrov Gay,50.147,48.5704,95.95,16,50,11.39,RU,1628604766
267,Arkadak,51.9326,43.4978,90.55,24,100,11.36,RU,1628604766
268,Makueni Boma,-1.8041,37.6203,73.08,58,99,3.98,KE,1628604766
269,Lowestoft,52.4752,1.7516,73.94,74,82,10.74,GB,1628604767
270,Rawson,-43.3002,-65.1023,51.58,41,9,16.53,AR,1628604767
271,Souillac,-20.5167,57.5167,73.36,94,75,3.44,MU,1628604768
272,Nuuk,64.1835,-51.7216,56.01,35,75,17.27,GL,1628604768
273,Great Yarmouth,52.6083,1.7305,73.94,65,89,10.33,GB,1628604768
274,Bonthe,7.5264,-12.505,78.42,80,100,7.96,SL,1628604769
275,Cidreira,-30.1811,-50.2056,57.83,93,100,11.83,BR,1628604769
276,Avera,33.194,-82.5271,86.92,67,100,3.6,US,1628604770
277,‘Āhuimanu,21.4447,-157.8378,76.71,79,40,10.36,US,1628604770
278,Kenai,60.5544,-151.2583,52.03,90,90,10.36,US,1628604770
279,Linxia Chengguanzhen,35.6003,103.2064,61.52,64,32,2.01,CN,1628604771
280,Mīzan Teferī,6.9833,35.5833,66.94,95,92,1.21,ET,1628604771
281,Superior,46.7208,-92.1041,73.08,97,90,5.75,US,1628604771
282,Songjianghe,42.1859,127.479,59.83,97,100,4.16,CN,1628604772
283,Padang,-0.9492,100.3543,75.25,85,99,3.04,ID,1628604772
284,Haines Junction,60.7522,-137.5108,45.7,92,100,6.78,CA,1628604773
285,Kavaratti,10.5669,72.642,81.72,78,100,21.16,IN,1628604773
286,Acajutla,13.5928,-89.8275,84.79,69,84,3.85,SV,1628604773
287,Uarini,-2.99,-65.1083,80.55,52,99,2.86,BR,1628604774
288,Panama City,8.9936,-79.5197,85.17,81,40,10.36,PA,1628604774
289,Tuatapere,-46.1333,167.6833,47.82,94,12,4.5,NZ,1628604775
290,Nago,26.5881,127.9761,82.47,91,100,8.23,JP,1628604775
291,Macusani,-14.0833,-70.4333,43.09,32,3,6.06,PE,1628604776
292,Esperance,-33.8667,121.9,44.44,80,76,24.65,AU,1628604776
293,Manggar,-2.8833,108.2667,82.33,73,15,14.54,ID,1628604777
294,Beloha,-25.1667,45.05,70.95,42,0,9.89,MG,1628604777
295,Joshīmath,30.5667,79.5667,71.92,93,69,0.87,IN,1628604777
296,Tessalit,20.1986,1.0114,104.68,18,17,7.34,ML,1628604778
297,Watertown,42.3709,-71.1828,71.8,92,90,0.0,US,1628604550
298,Baie-Comeau,49.2168,-68.1489,62.28,94,90,2.3,CA,1628604778
299,Massapê,-3.5228,-40.3428,93.52,37,18,10.74,BR,1628604779
300,Deep River,46.1001,-77.4995,77.43,83,100,7.0,CA,1628604779
301,Ponta Delgada,37.7333,-25.6667,75.92,73,20,12.66,PT,1628604779
302,Langxiang,46.95,128.8833,58.6,75,97,6.13,CN,1628604780
303,Alofi,-19.0595,-169.9187,74.61,84,100,14.7,NU,1628604780
304,Dunedin,-45.8742,170.5036,50.81,74,83,18.01,NZ,1628604780
305,São José da Coroa Grande,-8.8978,-35.1478,78.19,81,22,11.16,BR,1628604781
306,Pepel,8.5817,-13.0628,78.33,84,100,5.61,SL,1628604781
307,Sudislavl',57.8817,41.7083,84.9,48,84,3.2,RU,1628604782
308,Nouakchott,18.0858,-15.9785,94.93,45,60,12.06,MR,1628604782
309,Goundam,16.4145,-3.6708,97.23,35,100,6.42,ML,1628604782
310,Jalu,29.0331,21.5482,104.52,14,0,16.93,LY,1628604783
311,Aitape,-3.1374,142.3475,77.63,87,35,5.46,PG,1628604783
312,Gornopravdinsk,60.05,69.9,60.08,86,100,9.53,RU,1628604784
313,Mackay,-21.15,149.2,64.04,81,98,18.7,AU,1628604784
314,Kudahuvadhoo,2.6708,72.8944,83.19,72,77,12.39,MV,1628604785
315,Gigmoto,13.7796,124.39,79.68,85,99,8.28,PH,1628604785
316,Zhigansk,66.7697,123.3711,62.67,90,64,3.96,RU,1628604786
317,Hoquiam,46.9809,-123.8893,57.06,68,1,0.0,US,1628604786
318,Sarangani,5.4033,125.4636,83.46,74,75,8.9,PH,1628604786
319,Merauke,-8.4667,140.3333,76.96,86,8,13.6,ID,1628604787
320,Shingū,33.7333,135.9833,81.91,84,51,6.91,JP,1628604787
321,Djibouti,11.5,42.5,99.82,30,55,3.8,DJ,1628604788
322,Kumluca,36.3703,30.2869,93.96,32,0,7.14,TR,1628604788
323,Henties Bay,-22.116,14.2845,63.93,66,37,9.4,NA,1628604788
324,Poronaysk,49.2167,143.1167,50.54,90,0,3.94,RU,1628604789
325,Rutana Province,-3.8667,30.1,74.75,35,94,8.1,BI,1628604789
326,Mezen',65.8522,44.24,70.72,58,100,6.8,RU,1628604790
327,Santa Isabel Rio Negro,-0.4139,-65.0192,85.62,63,72,3.71,BR,1628604790
328,Harper,4.375,-7.7169,82.45,63,27,9.84,LR,1628604558
329,Great Falls,47.5002,-111.3008,68.16,46,1,17.27,US,1628604667
330,Yar-Sale,66.8333,70.8333,61.57,53,4,13.31,RU,1628604791
331,Taoudenni,22.6783,-3.9836,110.66,11,40,12.17,ML,1628604791
332,Chake Chake,-5.2459,39.7666,78.78,62,3,12.59,TZ,1628604791
333,Baghdad,33.3406,44.4009,109.31,13,0,18.41,IQ,1628604792
334,Samarinda,-0.5,117.15,74.25,96,27,1.43,ID,1628604792
335,Médéa,36.2642,2.7539,73.85,8,100,19.01,DZ,1628604792
336,Kīhei,20.785,-156.4656,75.22,90,90,5.75,US,1628604793
337,Palu,-0.8917,119.8707,75.88,96,52,2.59,ID,1628604793
338,Saint Anthony,45.0205,-93.218,77.32,84,90,1.99,US,1628604794
339,Lereşti,45.3333,25.0667,83.08,43,42,4.38,RO,1628604794
340,Mokhsogollokh,61.4681,128.9203,64.0,72,63,2.06,RU,1628604794
341,Kedrovka,55.5333,86.05,68.88,81,92,4.07,RU,1628604795
342,Hualmay,-11.0964,-77.6139,64.4,73,33,8.32,PE,1628604795
343,Bengkulu,-3.8004,102.2655,77.97,89,88,5.59,ID,1628604796
344,Sayyan,15.1718,44.3244,74.37,35,85,1.59,YE,1628604796
345,Prince Rupert,54.3161,-130.3201,55.49,94,90,8.05,CA,1628604796
346,Te Anau,-45.4167,167.7167,42.93,96,85,3.56,NZ,1628604797
347,Impfondo,1.6381,18.0667,92.07,37,96,2.48,CG,1628604797
348,Pyapon,16.2833,95.6833,83.08,79,84,6.31,MM,1628604798
349,Pandaria,22.2333,81.4167,81.61,77,90,9.04,IN,1628604798
350,Meulaboh,4.1363,96.1285,75.65,93,100,16.53,ID,1628604799
351,Kloulklubed,7.0419,134.2556,79.3,72,36,3.29,PW,1628604799
352,São Filipe,14.8961,-24.4956,78.04,78,96,8.46,CV,1628604800
353,Gazojak,41.1875,61.4036,94.71,12,0,13.13,TM,1628604800
354,Nantucket,41.2835,-70.0995,72.03,96,76,9.46,US,1628604801
355,Xinqing,48.2333,129.5,51.48,92,7,4.14,CN,1628604801
356,Grindavik,63.8424,-22.4338,64.56,72,20,9.22,IS,1628604801
357,Rome,43.2128,-75.4557,83.95,78,90,8.05,US,1628604723
358,Ugep,5.8086,8.0812,80.83,80,95,5.97,NG,1628604802
359,Muros,42.7762,-9.0603,81.14,71,0,13.42,ES,1628604802
360,Portales,34.1862,-103.3344,77.02,59,94,9.57,US,1628604802
361,São Gabriel da Cachoeira,-0.1303,-67.0892,83.32,66,80,2.64,BR,1628604803
362,Cap-aux-Meules,47.3821,-61.8597,64.53,91,95,15.97,CA,1628604803
363,Rāyagada,19.1667,83.4167,84.29,73,49,5.35,IN,1628604803
364,Fort Smith,35.3859,-94.3986,86.34,71,1,3.0,US,1628604762
365,Kofelē,7.0667,38.7833,58.06,83,80,4.38,ET,1628604804
366,Khovd,48.0056,91.6419,73.63,34,100,1.77,MN,1628604804
367,Peniche,39.3558,-9.3811,85.48,72,0,15.9,PT,1628604805
368,Yangi Marg`ilon,40.4272,71.7189,89.02,13,0,8.57,UZ,1628604805
369,Boa Vista,2.8197,-60.6733,78.78,78,90,4.61,BR,1628604806
370,Srednekolymsk,67.45,153.6833,58.39,63,89,7.9,RU,1628604806
371,Dubbo,-32.25,148.6167,48.33,87,0,4.61,AU,1628604806
372,Kandalaksha,67.162,32.4123,59.2,97,100,4.03,RU,1628604807
373,Mpongwe,-13.5091,28.155,83.97,11,0,7.49,ZM,1628604807
374,Isangel,-19.55,169.2667,68.83,69,100,16.51,VU,1628604807
375,Richards Bay,-28.783,32.0377,64.45,64,78,8.81,ZA,1628604808
376,Pusztaszer,46.5508,19.9882,92.1,17,9,7.09,HU,1628604808
377,Iquitos,-3.7481,-73.2472,82.44,78,40,3.44,PE,1628604809
378,Kaeo,-35.1,173.7833,46.33,93,13,4.63,NZ,1628604809
379,San Jose,37.3394,-121.895,62.31,88,40,3.44,US,1628604672
380,Nome,64.5011,-165.4064,44.67,87,1,6.91,US,1628604810
381,Tilichiki,60.4667,166.1,49.57,71,72,3.27,RU,1628604810
382,Kasungu,-13.0333,33.4833,82.72,16,0,5.03,MW,1628604811
383,Smoky Lake,54.1169,-112.4686,60.49,50,74,15.55,CA,1628604811
384,Shache,38.4167,77.2406,87.17,17,38,9.37,CN,1628604811
385,Codrington,-38.2667,141.9667,59.27,39,79,23.31,AU,1628604812
386,Pacifica,37.6138,-122.4869,62.19,88,90,1.01,US,1628604812
387,Sinazongwe,-17.2614,27.4618,81.12,26,0,6.33,ZM,1628604812
388,Geraldton,-28.7667,114.6,58.12,66,40,12.66,AU,1628604813
389,Port Hardy,50.6996,-127.4199,57.34,94,100,6.08,CA,1628604813
390,Bet Shemesh,31.7496,34.9888,90.57,40,0,14.61,IL,1628604814
391,Tucumã,-0.1833,-50.05,87.51,58,11,5.48,BR,1628604700
392,Porto-Novo,6.4965,2.6036,82.29,67,98,12.5,BJ,1628604814
393,Isla Vista,34.4133,-119.861,62.44,100,90,3.44,US,1628604815
394,Lompoc,34.6391,-120.4579,57.61,98,90,3.44,US,1628604815
395,Malanville,11.8685,3.3899,87.76,57,90,7.9,BJ,1628604816
396,Władysławowo,54.7909,18.4009,74.75,73,100,7.11,PL,1628604816
397,Mbandaka,0.0487,18.2603,81.82,54,66,3.51,CD,1628604817
398,Turaif,31.6725,38.6637,95.11,16,0,17.2,SA,1628604817
399,Lufilufi,-13.8745,-171.5986,81.25,77,17,16.82,WS,1628604818
400,Coquimbo,-29.9533,-71.3436,53.33,71,0,2.3,CL,1628604818
401,Los Llanos de Aridane,28.6585,-17.9182,74.95,77,20,5.75,ES,1628604818
402,Yulara,-25.2406,130.9889,49.84,32,0,0.0,AU,1628604819
403,Kawalu,-7.3817,108.2082,71.19,95,100,2.39,ID,1628604819
404,Nanortalik,60.1432,-45.2371,48.94,59,77,5.91,GL,1628604820
405,Klyuchi,52.2667,79.1667,64.96,87,69,5.48,RU,1628604820
406,French Harbor,16.35,-86.4333,84.2,97,75,5.75,HN,1628604821
407,Salinópolis,-0.6136,-47.3561,85.06,66,9,10.49,BR,1628604821
408,Moratuwa,6.773,79.8816,78.73,89,90,9.53,LK,1628604821
409,Lakefield,43.6775,-95.1717,78.28,84,1,1.99,US,1628604822
410,Pisco,-13.7,-76.2167,62.02,77,90,8.05,PE,1628604822
411,Kuminskiy,58.6667,66.5667,56.98,89,99,9.42,RU,1628604823
412,Mādhogarh,26.276,79.1869,86.7,74,99,8.23,IN,1628604823
413,Zyryanka,65.75,150.85,65.84,42,100,6.46,RU,1628604824
414,Pañgobilian,8.8011,117.8594,78.93,87,100,3.02,PH,1628604824
415,Faanui,-16.4833,-151.75,79.39,71,14,15.03,PF,1628604824
416,Carnduff,49.1667,-101.8009,58.37,72,8,14.52,CA,1628604825
417,Fomboni,-12.28,43.7425,77.54,68,79,12.08,KM,1628604825
418,Canatlán,24.5167,-104.7833,63.32,70,65,2.39,MX,1628604825
419,Ferme-Neuve,46.7001,-75.4493,77.7,70,100,6.89,CA,1628604826
420,Athabasca,54.7169,-113.2854,60.4,51,17,15.12,CA,1628604826
421,Araouane,18.9048,-3.5265,103.5,24,57,9.35,ML,1628604827
422,Ozinki,51.1786,49.6769,93.18,20,24,8.86,RU,1628604827
423,Krasnoarmiys'k,48.282,37.1758,88.61,32,98,7.7,UA,1628604827
424,Vrangel',42.7297,133.0839,63.91,79,100,14.41,RU,1628604828
425,Innisfail,-17.5333,146.0333,66.56,86,53,4.23,AU,1628604828
426,Marsh Harbour,26.5412,-77.0636,83.73,70,14,12.19,BS,1628604828
427,Ustupo,9.1333,-77.9333,82.22,80,99,4.59,PA,1628604829
428,Torbay,47.6666,-52.7314,66.76,66,51,3.0,CA,1628604829
429,Awjilah,29.1081,21.2869,104.76,13,0,16.2,LY,1628604830
430,Lavrentiya,65.5833,-171.0,41.07,83,63,4.85,RU,1628604737
431,Mweka,-4.85,21.5667,93.58,25,92,1.72,CD,1628604830
432,Kallupatti,9.7167,77.8667,87.76,48,100,4.63,IN,1628604830
433,Egvekinot,66.3167,-179.1667,43.83,73,29,1.3,RU,1628604831
434,Asău,46.4333,26.4,79.75,50,51,7.4,RO,1628604831
435,Forsytheganj,52.6333,29.7333,80.4,37,14,10.04,BY,1628604831
436,Formosa,-26.1775,-58.1781,53.58,82,90,14.97,AR,1628604832
437,Usinsk,65.9939,57.5281,66.94,55,14,7.11,RU,1628604832
438,Puerto Baquerizo Moreno,-0.9,-89.6,69.01,82,85,12.88,EC,1628604833
439,Barra de Tecoanapa,16.5167,-98.75,76.42,91,84,3.67,MX,1628604833
440,Tucupita,9.0622,-62.051,86.16,66,36,4.0,VE,1628604833
441,Mirador,-6.3708,-44.3631,92.05,35,0,9.53,BR,1628604834
442,Hay River,60.8156,-115.7999,53.56,100,90,17.27,CA,1628604834
443,Nokaneng,-19.6667,22.2667,87.37,9,0,6.31,BW,1628604834
444,Dourbali,11.8091,15.8632,87.76,55,54,8.48,TD,1628604835
445,Hammerfest,70.6634,23.6821,70.25,60,40,5.75,NO,1628604835
446,Iqaluit,63.7506,-68.5145,44.46,74,92,21.18,CA,1628604835
447,Maceió,-9.6658,-35.7353,80.04,69,75,10.36,BR,1628604708
448,Prieska,-29.6641,22.7474,65.66,16,0,9.82,ZA,1628604836
449,Ndago,-4.6,34.35,82.44,26,98,6.13,TZ,1628604836
450,Calimete,22.5333,-80.9061,84.34,62,0,12.84,CU,1628604837
451,Stornoway,58.2093,-6.3865,59.94,77,75,10.36,GB,1628604837
452,Lhokseumawe,5.1801,97.1507,78.57,86,100,3.36,ID,1628604837
453,Summerville,33.0185,-80.1757,86.79,86,1,0.0,US,1628604838
454,Vao,-22.6667,167.4833,65.53,66,100,22.06,NC,1628604838
455,Port Blair,11.6667,92.75,82.42,80,100,8.37,IN,1628604838
456,Korla,41.7597,86.1469,80.87,29,16,6.6,CN,1628604839
457,Vardø,70.3705,31.1107,59.2,89,100,6.42,NO,1628604839
458,Vestmannaeyjar,63.4427,-20.2734,54.99,82,10,25.59,IS,1628604840
459,Kahului,20.8947,-156.47,75.22,89,90,5.75,US,1628604840
460,Oderzo,45.7882,12.5019,93.97,36,98,1.68,IT,1628604840
461,Gimli,50.6336,-96.9907,63.43,95,100,15.66,CA,1628604841
462,Cascais,38.6979,-9.4215,85.35,53,20,8.99,PT,1628604841
463,Ibrā’,22.6906,58.5334,99.72,25,97,4.97,OM,1628604841
464,Treinta y Tres,-33.2333,-54.3833,52.52,81,84,9.84,UY,1628604842
465,Lebanon,36.2081,-86.2911,85.89,75,40,9.22,US,1628604840
466,Petropavlovsk-Kamchatskiy,53.0452,158.6483,47.17,75,12,4.76,RU,1628604843
467,Kathmandu,27.7167,85.3167,75.42,83,75,8.05,NP,1628604647
468,Okhotsk,59.3833,143.3,55.35,84,31,8.01,RU,1628604843
469,Central Point,42.376,-122.9164,62.73,73,90,1.01,US,1628604844
470,Fairbanks,64.8378,-147.7164,52.3,94,90,5.75,US,1628604740
471,Maniitsoq,65.4167,-52.9,47.14,65,100,12.46,GL,1628604844
472,Abu Dhabi,24.4667,54.3667,104.11,50,0,9.22,AE,1628604620
473,Bathsheba,13.2167,-59.5167,86.61,74,40,11.5,BB,1628604845
474,Sirte,31.2089,16.5887,87.4,52,0,11.92,LY,1628604845
475,Churapcha,62.0025,132.4325,62.53,49,21,5.66,RU,1628604846
476,Kumul,42.8,93.45,91.53,15,7,8.08,CN,1628604846
477,Chase,50.8165,-119.6857,69.71,73,100,4.0,CA,1628604847
478,Shestakovo,56.4915,103.96,62.04,57,94,3.2,RU,1628604847
479,Unaí,-16.3575,-46.9061,83.57,30,100,2.98,BR,1628604848
480,Broome,42.2506,-75.833,80.91,87,90,1.99,US,1628604848
481,Omsukchan,62.5333,155.8,52.27,70,23,2.82,RU,1628604849
482,Wakkanai,45.4094,141.6739,61.45,67,98,24.63,JP,1628604849
483,Omboué,-1.5746,9.2618,79.29,69,93,10.49,GA,1628604849
484,Vila Franca do Campo,37.7167,-25.4333,75.61,64,2,5.06,PT,1628604850
485,Linjiang,41.8069,126.9078,63.48,97,100,2.59,CN,1628604850
486,Coria,39.9879,-6.5377,96.46,14,0,7.23,ES,1628604850
487,Faya,18.3851,42.4509,73.92,49,100,6.2,SA,1628604851
488,Hohhot,40.8106,111.6522,70.97,32,88,4.74,CN,1628604851
489,Gulu,2.7746,32.299,73.24,75,100,5.39,UG,1628604851
490,Pauini,-7.7136,-66.9764,91.15,33,0,4.21,BR,1628604852
491,Arrondissement de Morlaix,48.5833,-4.0,69.89,72,75,5.75,FR,1628604852
492,Guerrero Negro,27.9769,-114.0611,70.57,82,11,8.19,MX,1628604853
493,Cururupu,-1.8283,-44.8683,88.65,51,0,7.49,BR,1628604853
494,Caucayá,-0.1934,-74.7819,79.93,78,43,1.12,CO,1628604853
495,Sakakah,29.9697,40.2064,104.22,10,0,6.98,SA,1628604854
496,Baft,29.234,56.6057,83.21,7,0,14.85,IR,1628604854
497,Bilma,18.6853,12.9164,105.55,15,78,5.61,NE,1628604800
498,Penzance,50.1186,-5.5371,66.27,88,20,10.36,GB,1628604855
499,Verāval,20.9,70.3667,81.48,81,100,10.33,IN,1628604855
500,Mercedes,-34.6515,-59.4307,45.86,61,0,8.08,AR,1628604856
501,Hofn,64.2539,-15.2082,53.73,81,100,8.05,IS,1628604856
502,Salta,-24.7859,-65.4117,49.57,53,6,4.0,AR,1628604714
503,Cartagena,10.3997,-75.5144,87.42,66,40,4.61,CO,1628604856
504,Inuvik,68.3499,-133.7218,43.57,73,100,6.89,CA,1628604574
505,Cuiabá,-15.5961,-56.0967,89.53,31,0,6.91,BR,1628604857
506,Muscle Shoals,34.7448,-87.6675,86.14,80,1,1.99,US,1628604857
507,Wewak,-3.5534,143.6268,79.34,84,95,4.54,PG,1628604858
508,Pevek,69.7008,170.3133,33.51,94,74,17.69,RU,1628604737
509,Charter Township of Clinton,42.587,-82.9199,78.82,88,90,1.99,US,1628604776
510,Erbaa,40.6689,36.5675,72.39,65,94,4.32,TR,1628604858
511,Kodinsk,58.6881,99.1844,64.17,66,19,1.39,RU,1628604859
512,Ambulu,-8.345,113.6058,73.33,85,74,6.4,ID,1628604859
513,Mogok,22.9167,96.5,68.92,93,100,2.86,MM,1628604859
514,Bowen,-20.0167,148.2333,67.48,84,27,14.25,AU,1628604860
515,Pangody,65.85,74.4859,59.67,54,4,14.41,RU,1628604860
516,Saanen,46.4896,7.2596,78.87,41,3,5.39,CH,1628604861
517,Nizhnevartovsk,60.9344,76.5531,60.82,77,75,8.95,RU,1628604861
518,Nizhniy Tsasuchey,50.5167,115.1333,59.81,97,100,9.66,RU,1628604861
519,Labuhan,-6.8844,112.2051,79.9,72,44,9.15,ID,1628604862
520,Arrondissement de Lannion,48.75,-3.4167,66.74,63,20,9.22,FR,1628604862
521,Saint-Leu,-21.15,55.2833,74.23,81,41,6.64,RE,1628604862
522,Lodja,-3.4833,23.4333,94.8,28,96,1.57,CD,1628604863
523,Kalinovskaya,43.5758,45.5192,97.88,25,0,4.68,RU,1628604863
524,Praia,14.9215,-23.5087,84.74,61,75,16.11,CV,1628604864
525,Kingseat,56.0974,-3.4084,69.04,62,20,4.0,GB,1628604864
526,Poso,-1.3959,120.7524,76.48,88,33,4.94,ID,1628604864
527,Fort Nelson,58.8053,-122.7002,53.06,63,31,2.68,CA,1628604865
528,Adalaj,23.1667,72.5833,87.66,66,75,10.36,IN,1628604865
529,Onokhoy,51.932,108.0747,60.55,55,0,1.79,RU,1628604733
530,Kupang,-10.1667,123.5833,78.22,74,53,11.61,ID,1628604866
531,Bīkāpur,26.6,82.1333,83.68,81,70,5.73,IN,1628604866
532,Constitución,-35.3333,-72.4167,51.84,63,0,4.97,CL,1628604866
533,Pedasí,7.5333,-80.0333,79.39,82,100,13.56,PA,1628604867
534,Trojan,53.7897,20.2404,77.29,55,100,11.14,PL,1628604867
535,Augsburg,48.3667,10.8833,83.05,53,0,5.75,DE,1628604671
536,Semey,50.4111,80.2275,64.62,88,75,17.9,KZ,1628604868
537,Cochrane,51.1834,-114.4687,64.2,54,100,8.93,CA,1628604781
538,Nassau,40.7507,-73.5829,78.91,81,75,1.01,US,1628604868
539,Philadelphia,39.9523,-75.1638,82.08,84,75,5.99,US,1628604866
540,Dongsheng,39.8161,109.9776,72.25,22,100,7.81,CN,1628604869
541,Bull Savanna,17.8868,-77.5902,83.7,57,6,11.61,JM,1628604869
542,Manzanillo,20.3433,-77.1167,84.16,68,10,11.5,CU,1628604870
543,Lagoa,39.05,-27.9833,72.0,85,53,15.37,PT,1628604870
544,Conakry,9.538,-13.6773,79.16,80,89,11.07,GN,1628604870
545,Killybegs,54.6333,-8.45,62.31,65,90,3.96,IE,1628604871
546,Sūsangerd,31.5608,48.1831,114.82,6,0,21.25,IR,1628604871
547,Celestún,20.8667,-90.4,80.94,73,51,8.43,MX,1628604872
548,Doka,13.5167,35.7667,84.69,59,18,6.89,SD,1628604614
549,Bani Walid,31.7566,13.9942,105.62,12,0,9.8,LY,1628604872
550,Eydhafushi,5.1033,73.0708,82.51,75,100,16.67,MV,1628604872
551,Laguna de Perlas,12.3429,-83.6712,79.48,87,39,8.84,NI,1628604873
552,Bud,39.447,-86.1758,81.12,88,96,10.65,US,1628604873
553,Pendleton,45.6721,-118.7886,71.67,48,1,8.05,US,1628604874
554,Karratha,-20.7377,116.8463,72.25,33,4,17.27,AU,1628604874
555,Rybachiy,48.7073,44.7449,100.26,14,100,13.58,RU,1628604875
556,Tamworth,52.634,-1.6959,71.96,60,100,4.0,GB,1628604875
557,Payo,-3.7508,103.6372,75.29,89,50,3.69,ID,1628604876
558,Oddur,4.1213,43.8894,86.77,37,100,16.37,SO,1628604876
559,Naustdal,61.509,5.7168,66.06,77,75,8.05,NO,1628604876
560,Tadine,-21.55,167.8833,65.7,67,100,16.6,NC,1628604877
561,Caxito,-8.5785,13.6643,77.65,41,16,10.71,AO,1628604877
562,La Libertad,-2.2333,-80.9,68.88,80,96,8.03,EC,1628604878
563,Lesozavodsk,45.4794,133.4244,63.95,59,100,7.27,RU,1628604878
564,Tula,54.2044,37.6111,73.76,62,100,1.1,RU,1628604879
565,Broken Hill,-31.95,141.4333,56.84,32,0,12.86,AU,1628604879
566,Teguise,29.0605,-13.564,75.42,47,40,17.27,ES,1628604879
567,Ouango,4.3133,22.5552,85.6,56,65,3.44,CF,1628604880
568,Mayya,61.7333,130.2811,63.72,62,100,5.68,RU,1628604880
569,Acaraú,-2.8856,-40.12,89.02,52,3,15.3,BR,1628604881
570,Kinsale,51.7075,-8.5306,65.57,63,20,13.8,IE,1628604881
571,Lensk,60.7253,114.9278,60.26,81,100,2.08,RU,1628604882
572,Son La,21.3167,103.9,72.77,98,100,1.28,VN,1628604882
